{
  "title": "China East Coast Sample Route",
  "description": "Test fixture: a classic place sequence from Beijing to Hangzhou for Sketch Map.",
  "locations": [
    {
      "id": "sample-forbidden-city",
      "name": "Forbidden City",
      "displayName": "Forbidden City, Dongcheng District, Beijing, China",
      "lat": 39.916345,
      "lng": 116.397155
    },
    {
      "id": "sample-terracotta",
      "name": "Terracotta Army",
      "displayName": "Museum of Qin Terracotta Warriors, Lintong District, Xi'an, Shaanxi, China",
      "lat": 34.384992,
      "lng": 109.273362
    },
    {
      "id": "sample-shanghai-bund",
      "name": "The Bund",
      "displayName": "The Bund, Huangpu District, Shanghai, China",
      "lat": 31.239692,
      "lng": 121.490989
    },
    {
      "id": "sample-west-lake",
      "name": "West Lake",
      "displayName": "West Lake, Xihu District, Hangzhou, Zhejiang, China",
      "lat": 30.242865,
      "lng": 120.148384
    },
    {
      "id": "sample-yellow-mountain",
      "name": "Mount Huang",
      "displayName": "Mount Huang, Huangshan, Anhui, China",
      "lat": 30.137481,
      "lng": 118.168339
    }
  ]
}
